{"ast":null,"code":"var _jsxFileName = \"/Users/daveregg/git-repository-projects/nextjs-weather/pages/index.js\";\nimport React from \"react\";\nvar __jsx = React.createElement;\n\n/*\n\nTODO\n= Adjust CSS so it isn't redundant\n    - Universal classes\n    - Color scheme\n    - Sidebar layout\n= Submit button should work when enter is clicked\n= Break up functions\n\n*/\nimport Layout from '../components/layout/layout';\nimport utilStyles from '../styles/utils.module.scss';\n\nconst Homepage = () => {\n  return __jsx(Layout, {\n    __self: this,\n    __source: {\n      fileName: _jsxFileName,\n      lineNumber: 17,\n      columnNumber: 5\n    }\n  }, __jsx(\"h1\", {\n    className: `${utilStyles.title} ${utilStyles.mtb3}`,\n    __self: this,\n    __source: {\n      fileName: _jsxFileName,\n      lineNumber: 18,\n      columnNumber: 7\n    }\n  }, \"Get some weather\"), __jsx(\"p\", {\n    className: `${utilStyles.subtitle}`,\n    __self: this,\n    __source: {\n      fileName: _jsxFileName,\n      lineNumber: 19,\n      columnNumber: 7\n    }\n  }, \"Search for your location in the search bar\", __jsx(\"br\", {\n    __self: this,\n    __source: {\n      fileName: _jsxFileName,\n      lineNumber: 20,\n      columnNumber: 51\n    }\n  }), \"Or click common cities above.\"));\n};\n\nexport async function getServerSideProps(ctx) {\n  const cities = [{\n    lat: 40.014984,\n    lng: -105.270546\n  }, {\n    lat: 42.317432,\n    lng: -83.026772\n  }, {\n    lat: 37.865101,\n    lng: -119.538330\n  }, {\n    lat: 55.766174,\n    lng: 37.610561\n  }, {\n    lat: 19.432526,\n    lng: -99.194954\n  }, {\n    lat: 48.855701,\n    lng: 2.317000\n  }, {\n    lat: 48.108334,\n    lng: 16.316944\n  }, {\n    lat: 41.913399,\n    lng: -87.648201\n  }, {\n    lat: -23.566221,\n    lng: -46.667358\n  }, {\n    lat: -33.927551,\n    lng: 18.457073\n  }];\n  const city = cities[Math.floor(Math.random() * cities.length)]; // search for weather data with lat and long data\n\n  const weather_res = await fetch(`https://api.openweathermap.org/data/2.5/onecall?lat=${city.lat}&lon=${city.lng}&appid=${process.env.WEATHER_API}&units=metric`);\n  const weather_data = await weather_res.json();\n  console.log(weather_data); // return to props\n\n  return {\n    props: {\n      weather: weather_data\n    }\n  };\n}\nexport default Homepage;","map":{"version":3,"sources":["/Users/daveregg/git-repository-projects/nextjs-weather/pages/index.js"],"names":["Layout","utilStyles","Homepage","title","mtb3","subtitle","getServerSideProps","ctx","cities","lat","lng","city","Math","floor","random","length","weather_res","fetch","process","env","WEATHER_API","weather_data","json","console","log","props","weather"],"mappings":";;;;AAAA;;;;;;;;;;;AAWA,OAAOA,MAAP,MAAmB,6BAAnB;AACA,OAAOC,UAAP,MAAuB,6BAAvB;;AAEA,MAAMC,QAAQ,GAAG,MAAM;AACrB,SACE,MAAC,MAAD;AAAA;AAAA;AAAA;AAAA;AAAA;AAAA;AAAA,KACE;AAAI,IAAA,SAAS,EAAG,GAAED,UAAU,CAACE,KAAM,IAAGF,UAAU,CAACG,IAAK,EAAtD;AAAA;AAAA;AAAA;AAAA;AAAA;AAAA;AAAA,wBADF,EAEE;AAAG,IAAA,SAAS,EAAG,GAAEH,UAAU,CAACI,QAAS,EAArC;AAAA;AAAA;AAAA;AAAA;AAAA;AAAA;AAAA,mDAC4C;AAAA;AAAA;AAAA;AAAA;AAAA;AAAA;AAAA,IAD5C,kCAFF,CADF;AASD,CAVD;;AAYA,OAAO,eAAeC,kBAAf,CAAkCC,GAAlC,EAAuC;AAC5C,QAAMC,MAAM,GAAG,CACb;AACEC,IAAAA,GAAG,EAAE,SADP;AAEEC,IAAAA,GAAG,EAAE,CAAC;AAFR,GADa,EAKb;AACED,IAAAA,GAAG,EAAE,SADP;AAEEC,IAAAA,GAAG,EAAE,CAAC;AAFR,GALa,EASb;AACED,IAAAA,GAAG,EAAE,SADP;AAEEC,IAAAA,GAAG,EAAE,CAAC;AAFR,GATa,EAab;AACED,IAAAA,GAAG,EAAE,SADP;AAEEC,IAAAA,GAAG,EAAE;AAFP,GAba,EAiBb;AACED,IAAAA,GAAG,EAAE,SADP;AAEEC,IAAAA,GAAG,EAAE,CAAC;AAFR,GAjBa,EAqBb;AACED,IAAAA,GAAG,EAAE,SADP;AAEEC,IAAAA,GAAG,EAAE;AAFP,GArBa,EAyBb;AACED,IAAAA,GAAG,EAAE,SADP;AAEEC,IAAAA,GAAG,EAAE;AAFP,GAzBa,EA6Bb;AACED,IAAAA,GAAG,EAAE,SADP;AAEEC,IAAAA,GAAG,EAAE,CAAC;AAFR,GA7Ba,EAiCb;AACED,IAAAA,GAAG,EAAE,CAAC,SADR;AAEEC,IAAAA,GAAG,EAAE,CAAC;AAFR,GAjCa,EAqCb;AACED,IAAAA,GAAG,EAAE,CAAC,SADR;AAEEC,IAAAA,GAAG,EAAE;AAFP,GArCa,CAAf;AA0CA,QAAMC,IAAI,GAAGH,MAAM,CAACI,IAAI,CAACC,KAAL,CAAWD,IAAI,CAACE,MAAL,KAAgBN,MAAM,CAACO,MAAlC,CAAD,CAAnB,CA3C4C,CA4C5C;;AACA,QAAMC,WAAW,GAAG,MAAMC,KAAK,CAAE,uDAAsDN,IAAI,CAACF,GAAI,QAAOE,IAAI,CAACD,GAAI,UAASQ,OAAO,CAACC,GAAR,CAAYC,WAAY,eAAlH,CAA/B;AACA,QAAMC,YAAY,GAAG,MAAML,WAAW,CAACM,IAAZ,EAA3B;AAEAC,EAAAA,OAAO,CAACC,GAAR,CAAYH,YAAZ,EAhD4C,CAiD5C;;AACA,SAAO;AACLI,IAAAA,KAAK,EAAE;AACLC,MAAAA,OAAO,EAAEL;AADJ;AADF,GAAP;AAKD;AAED,eAAenB,QAAf","sourcesContent":["/*\n\nTODO\n= Adjust CSS so it isn't redundant\n    - Universal classes\n    - Color scheme\n    - Sidebar layout\n= Submit button should work when enter is clicked\n= Break up functions\n\n*/\nimport Layout from '../components/layout/layout';\nimport utilStyles from '../styles/utils.module.scss';\n\nconst Homepage = () => {\n  return (\n    <Layout>\n      <h1 className={`${utilStyles.title} ${utilStyles.mtb3}`}>Get some weather</h1>\n      <p className={`${utilStyles.subtitle}`}>\n        Search for your location in the search bar<br />\n        Or click common cities above.\n      </p>\n    </Layout>\n  )\n}\n\nexport async function getServerSideProps(ctx) {\n  const cities = [\n    {\n      lat: 40.014984,\n      lng: -105.270546\n    },\n    {\n      lat: 42.317432,\n      lng: -83.026772\n    },\n    {\n      lat: 37.865101,\n      lng: -119.538330\n    },\n    {\n      lat: 55.766174,\n      lng: 37.610561\n    },\n    {\n      lat: 19.432526,\n      lng: -99.194954\n    },\n    {\n      lat: 48.855701,\n      lng: 2.317000\n    },\n    {\n      lat: 48.108334,\n      lng: 16.316944\n    },\n    {\n      lat: 41.913399,\n      lng: -87.648201\n    },\n    {\n      lat: -23.566221,\n      lng: -46.667358\n    },\n    {\n      lat: -33.927551,\n      lng: 18.457073\n    }\n  ];\n  const city = cities[Math.floor(Math.random() * cities.length)];\n  // search for weather data with lat and long data\n  const weather_res = await fetch(`https://api.openweathermap.org/data/2.5/onecall?lat=${city.lat}&lon=${city.lng}&appid=${process.env.WEATHER_API}&units=metric`);\n  const weather_data = await weather_res.json();\n\n  console.log(weather_data);\n  // return to props\n  return {\n    props: {\n      weather: weather_data\n    }\n  }\n}\n\nexport default Homepage;"]},"metadata":{},"sourceType":"module"}